{
"type": "FeatureCollection",
"name": "centroides-estados",
"features": [
{ "type": "Feature", "properties": { "cvegeo": "01", "estados_abre": "Ags.", "estados_grado_marg": "Bajo", "estados_nom_edo": "Aguascalientes", "estados_pob18ymas": 977232.0, "estados_pob18ymas_rural": 121042, "estados_pob18ymas_urbano": 856190.0 }, "geometry": { "type": "Point", "coordinates": [ -102.361937761873463, 22.006441075430711 ] } },
{ "type": "Feature", "properties": { "cvegeo": "02", "estados_abre": "B.C.", "estados_grado_marg": "Muy bajo", "estados_nom_edo": "Baja California", "estados_pob18ymas": 2832742.0, "estados_pob18ymas_rural": 250696, "estados_pob18ymas_urbano": 2582046.0 }, "geometry": { "type": "Point", "coordinates": [ -115.09700693658607, 30.551550222060342 ] } },
{ "type": "Feature", "properties": { "cvegeo": "03", "estados_abre": "B.C.S.", "estados_grado_marg": "Bajo", "estados_nom_edo": "Baja California Sur", "estados_pob18ymas": 540672.0, "estados_pob18ymas_rural": 46602, "estados_pob18ymas_urbano": 494070.0 }, "geometry": { "type": "Point", "coordinates": [ -112.066203096940569, 25.918710937313456 ] } },
{ "type": "Feature", "properties": { "cvegeo": "04", "estados_abre": "Camp.", "estados_grado_marg": "Alto", "estados_nom_edo": "Campeche", "estados_pob18ymas": 651064.0, "estados_pob18ymas_rural": 144699, "estados_pob18ymas_urbano": 506365.0 }, "geometry": { "type": "Point", "coordinates": [ -90.359841317641312, 18.840415549390265 ] } },
{ "type": "Feature", "properties": { "cvegeo": "05", "estados_abre": "Coah.", "estados_grado_marg": "Muy bajo", "estados_nom_edo": "Coahuila de Zaragoza", "estados_pob18ymas": 2235557.0, "estados_pob18ymas_rural": 153346, "estados_pob18ymas_urbano": 2082211.0 }, "geometry": { "type": "Point", "coordinates": [ -102.044038678108834, 27.295442972062133 ] } },
{ "type": "Feature", "properties": { "cvegeo": "06", "estados_abre": "Col.", "estados_grado_marg": "Bajo", "estados_nom_edo": "Colima", "estados_pob18ymas": 542150.0, "estados_pob18ymas_rural": 39407, "estados_pob18ymas_urbano": 502743.0 }, "geometry": { "type": "Point", "coordinates": [ -104.115115436412751, 19.130683279032926 ] } },
{ "type": "Feature", "properties": { "cvegeo": "07", "estados_abre": "Chis.", "estados_grado_marg": "Muy alto", "estados_nom_edo": "Chiapas", "estados_pob18ymas": 3691189.0, "estados_pob18ymas_rural": 1771021, "estados_pob18ymas_urbano": 1920168.0 }, "geometry": { "type": "Point", "coordinates": [ -92.472911947615685, 16.485239951605813 ] } },
{ "type": "Feature", "properties": { "cvegeo": "08", "estados_abre": "Chih.", "estados_grado_marg": "Bajo", "estados_nom_edo": "Chihuahua", "estados_pob18ymas": 2807360.0, "estados_pob18ymas_rural": 292875, "estados_pob18ymas_urbano": 2514485.0 }, "geometry": { "type": "Point", "coordinates": [ -106.468939531432952, 28.808538062016623 ] } },
{ "type": "Feature", "properties": { "cvegeo": "09", "estados_abre": "CDMX", "estados_grado_marg": "Muy bajo", "estados_nom_edo": "Ciudad de México", "estados_pob18ymas": 7654351.0, "estados_pob18ymas_rural": 1863, "estados_pob18ymas_urbano": 7652488.0 }, "geometry": { "type": "Point", "coordinates": [ -99.139387063112949, 19.276868299849415 ] } },
{ "type": "Feature", "properties": { "cvegeo": "10", "estados_abre": "Dgo.", "estados_grado_marg": "Medio", "estados_nom_edo": "Durango", "estados_pob18ymas": 1292950.0, "estados_pob18ymas_rural": 325057, "estados_pob18ymas_urbano": 967893.0 }, "geometry": { "type": "Point", "coordinates": [ -104.913398574705909, 24.92361040321525 ] } },
{ "type": "Feature", "properties": { "cvegeo": "11", "estados_abre": "Gto.", "estados_grado_marg": "Medio", "estados_nom_edo": "Guanajuato", "estados_pob18ymas": 4454328.0, "estados_pob18ymas_rural": 1187316, "estados_pob18ymas_urbano": 3267012.0 }, "geometry": { "type": "Point", "coordinates": [ -101.012614352653245, 20.905432044070093 ] } },
{ "type": "Feature", "properties": { "cvegeo": "12", "estados_abre": "Gro.", "estados_grado_marg": "Muy alto", "estados_nom_edo": "Guerrero", "estados_pob18ymas": 2503599.0, "estados_pob18ymas_rural": 909758, "estados_pob18ymas_urbano": 1593841.0 }, "geometry": { "type": "Point", "coordinates": [ -99.921833822611603, 17.668002763453206 ] } },
{ "type": "Feature", "properties": { "cvegeo": "13", "estados_abre": "Hgo.", "estados_grado_marg": "Alto", "estados_nom_edo": "Hidalgo", "estados_pob18ymas": 2199110.0, "estados_pob18ymas_rural": 868303, "estados_pob18ymas_urbano": 1330807.0 }, "geometry": { "type": "Point", "coordinates": [ -98.887113077924937, 20.479556677253111 ] } },
{ "type": "Feature", "properties": { "cvegeo": "14", "estados_abre": "Jal.", "estados_grado_marg": "Bajo", "estados_nom_edo": "Jalisco", "estados_pob18ymas": 6027572.0, "estados_pob18ymas_rural": 623323, "estados_pob18ymas_urbano": 5404249.0 }, "geometry": { "type": "Point", "coordinates": [ -103.613236092390537, 20.580765162738832 ] } },
{ "type": "Feature", "properties": { "cvegeo": "15", "estados_abre": "Edo Mx.", "estados_grado_marg": "Bajo", "estados_nom_edo": "México", "estados_pob18ymas": 12083969.0, "estados_pob18ymas_rural": 1581550, "estados_pob18ymas_urbano": 10502419.0 }, "geometry": { "type": "Point", "coordinates": [ -99.645369115240626, 19.355957487817296 ] } },
{ "type": "Feature", "properties": { "cvegeo": "16", "estados_abre": "Mich.", "estados_grado_marg": "Alto", "estados_nom_edo": "Michoacán de Ocampo", "estados_pob18ymas": 3464541.0, "estados_pob18ymas_rural": 944274, "estados_pob18ymas_urbano": 2520267.0 }, "geometry": { "type": "Point", "coordinates": [ -101.87811328716576, 19.207096082858651 ] } },
{ "type": "Feature", "properties": { "cvegeo": "17", "estados_abre": "Mor.", "estados_grado_marg": "Medio", "estados_nom_edo": "Morelos", "estados_pob18ymas": 1462800.0, "estados_pob18ymas_rural": 89901, "estados_pob18ymas_urbano": 1372899.0 }, "geometry": { "type": "Point", "coordinates": [ -99.074962326756648, 18.742077944277693 ] } },
{ "type": "Feature", "properties": { "cvegeo": "18", "estados_abre": "Nay.", "estados_grado_marg": "Medio", "estados_nom_edo": "Nayarit", "estados_pob18ymas": 869194.0, "estados_pob18ymas_rural": 186992, "estados_pob18ymas_urbano": 682202.0 }, "geometry": { "type": "Point", "coordinates": [ -104.854965939187196, 21.802078978410258 ] } },
{ "type": "Feature", "properties": { "cvegeo": "19", "estados_abre": "N.L.", "estados_grado_marg": "Muy bajo", "estados_nom_edo": "Nuevo León", "estados_pob18ymas": 4005196.0, "estados_pob18ymas_rural": 206491, "estados_pob18ymas_urbano": 3798705.0 }, "geometry": { "type": "Point", "coordinates": [ -99.968969896282303, 25.57259026210847 ] } },
{ "type": "Feature", "properties": { "cvegeo": "20", "estados_abre": "Oax.", "estados_grado_marg": "Muy alto", "estados_nom_edo": "Oaxaca", "estados_pob18ymas": 2923407.0, "estados_pob18ymas_rural": 778654, "estados_pob18ymas_urbano": 2144753.0 }, "geometry": { "type": "Point", "coordinates": [ -96.4301294126345, 16.961442620153306 ] } },
{ "type": "Feature", "properties": { "cvegeo": "21", "estados_abre": "Pue.", "estados_grado_marg": "Alto", "estados_nom_edo": "Puebla", "estados_pob18ymas": 4579384.0, "estados_pob18ymas_rural": 927737, "estados_pob18ymas_urbano": 3651647.0 }, "geometry": { "type": "Point", "coordinates": [ -97.900095820923951, 19.006079956873563 ] } },
{ "type": "Feature", "properties": { "cvegeo": "22", "estados_abre": "Qro.", "estados_grado_marg": "Bajo", "estados_nom_edo": "Querétaro", "estados_pob18ymas": 1676759.0, "estados_pob18ymas_rural": 329296, "estados_pob18ymas_urbano": 1347463.0 }, "geometry": { "type": "Point", "coordinates": [ -99.845796403447153, 20.855176072017692 ] } },
{ "type": "Feature", "properties": { "cvegeo": "23", "estados_abre": "QRoo.", "estados_grado_marg": "Medio", "estados_nom_edo": "Quintana Roo", "estados_pob18ymas": 1292544.0, "estados_pob18ymas_rural": 104265, "estados_pob18ymas_urbano": 1188279.0 }, "geometry": { "type": "Point", "coordinates": [ -88.111670387602416, 19.60132205926838 ] } },
{ "type": "Feature", "properties": { "cvegeo": "24", "estados_abre": "S.L.P.", "estados_grado_marg": "Alto", "estados_nom_edo": "San Luis Potosí", "estados_pob18ymas": 2011235.0, "estados_pob18ymas_rural": 671028, "estados_pob18ymas_urbano": 1340207.0 }, "geometry": { "type": "Point", "coordinates": [ -100.416508701715543, 22.585459882245186 ] } },
{ "type": "Feature", "properties": { "cvegeo": "25", "estados_abre": "Sin.", "estados_grado_marg": "Medio", "estados_nom_edo": "Sinaloa", "estados_pob18ymas": 2183441.0, "estados_pob18ymas_rural": 349330, "estados_pob18ymas_urbano": 1834111.0 }, "geometry": { "type": "Point", "coordinates": [ -107.509150731945823, 25.001439526737698 ] } },
{ "type": "Feature", "properties": { "cvegeo": "26", "estados_abre": "Son.", "estados_grado_marg": "Bajo", "estados_nom_edo": "Sonora", "estados_pob18ymas": 2126986.0, "estados_pob18ymas_rural": 251668, "estados_pob18ymas_urbano": 1875318.0 }, "geometry": { "type": "Point", "coordinates": [ -110.809947543476312, 29.687702945142199 ] } },
{ "type": "Feature", "properties": { "cvegeo": "27", "estados_abre": "Tab.", "estados_grado_marg": "Medio", "estados_nom_edo": "Tabasco", "estados_pob18ymas": 1706184.0, "estados_pob18ymas_rural": 661059, "estados_pob18ymas_urbano": 1045125.0 }, "geometry": { "type": "Point", "coordinates": [ -92.593975193661279, 17.937681788218224 ] } },
{ "type": "Feature", "properties": { "cvegeo": "28", "estados_abre": "Tamps.", "estados_grado_marg": "Bajo", "estados_nom_edo": "Tamaulipas", "estados_pob18ymas": 2638574.0, "estados_pob18ymas_rural": 225566, "estados_pob18ymas_urbano": 2413008.0 }, "geometry": { "type": "Point", "coordinates": [ -98.640894372037224, 24.29101159243956 ] } },
{ "type": "Feature", "properties": { "cvegeo": "29", "estados_abre": "Tlax.", "estados_grado_marg": "Medio", "estados_nom_edo": "Tlaxcala", "estados_pob18ymas": 942630.0, "estados_pob18ymas_rural": 49954, "estados_pob18ymas_urbano": 892676.0 }, "geometry": { "type": "Point", "coordinates": [ -98.168578167667462, 19.428547038858888 ] } },
{ "type": "Feature", "properties": { "cvegeo": "30", "estados_abre": "Ver.", "estados_grado_marg": "Alto", "estados_nom_edo": "Veracruz de Ignacio de la Llave", "estados_pob18ymas": 5805008.0, "estados_pob18ymas_rural": 1859635, "estados_pob18ymas_urbano": 3945373.0 }, "geometry": { "type": "Point", "coordinates": [ -96.418558857758853, 19.392958032770075 ] } },
{ "type": "Feature", "properties": { "cvegeo": "31", "estados_abre": "Yuc.", "estados_grado_marg": "Alto", "estados_nom_edo": "Yucatán", "estados_pob18ymas": 1597170.0, "estados_pob18ymas_rural": 103889, "estados_pob18ymas_urbano": 1493281.0 }, "geometry": { "type": "Point", "coordinates": [ -88.926175861647891, 20.757441069302402 ] } },
{ "type": "Feature", "properties": { "cvegeo": "32", "estados_abre": "Zac.", "estados_grado_marg": "Medio", "estados_nom_edo": "Zacatecas", "estados_pob18ymas": 1174543.0, "estados_pob18ymas_rural": 338108, "estados_pob18ymas_urbano": 836435.0 }, "geometry": { "type": "Point", "coordinates": [ -102.660557301791172, 23.289018882836697 ] } }
]
}
